<stations lastUpdate="1381763238933" version="2.0"><station><id>3</id><name>Colleges of the Fenway</name><terminalName>B32006</terminalName><lastCommWithServer>1381763085527</lastCommWithServer><lat>42.340021</lat><long>-71.100812</long><installed>true</installed><locked>false</locked><installDate>1363280400000</installDate><removalDate/><temporary>false</temporary><public>true</public><nbBikes>7</nbBikes><nbEmptyDocks>7</nbEmptyDocks><latestUpdateTime>1381761635745</latestUpdateTime></station><station><id>4</id><name>Tremont St. at Berkeley St.</name><terminalName>C32000</terminalName><lastCommWithServer>1381763081499</lastCommWithServer><lat>42.345392</lat><long>-71.069616</long><installed>true</installed><locked>false</locked><installDate>1365087600000</installDate><removalDate/><temporary>false</temporary><public>true</public><nbBikes>4</nbBikes><nbEmptyDocks>11</nbEmptyDocks><latestUpdateTime>1381762356276</latestUpdateTime></station><station><id>5</id><name>Northeastern U / North Parking Lot</name><terminalName>B32012</terminalName><lastCommWithServer>1381763129929</lastCommWithServer><lat>42.341814</lat><long>-71.090179</long><installed>true</installed><locked>false</locked><installDate>1367006160000</installDate><removalDate>1354117440000</removalDate><temporary>false</temporary><public>true</public><nbBikes>8</nbBikes><nbEmptyDocks>7</nbEmptyDocks><latestUpdateTime>1381759398404</latestUpdateTime></station><station><id>6</id><name>Cambridge St. at Joy St.</name><terminalName>D32000</terminalName><lastCommWithServer>1381763092322</lastCommWithServer><lat>42.361285</lat><long>-71.06514</long><installed>true</installed><locked>false</locked><installDate>1364475600000</installDate><removalDate>1354193460000</removalDate><temporary>false</temporary><public>true</public><nbBikes>4</nbBikes><nbEmptyDocks>11</nbEmptyDocks><latestUpdateTime>1381762366857</latestUpdateTime></station><station><id>7</id><name>Fan Pier</name><terminalName>A32000</terminalName><lastCommWithServer>1381763136417</lastCommWithServer><lat>42.353412</lat><long>-71.044624</long><installed>true</installed><locked>false</locked><installDate>1363107600000</installDate><removalDate/><temporary>false</temporary><public>true</public><nbBikes>2</nbBikes><nbEmptyDocks>13</nbEmptyDocks><latestUpdateTime>1381756145443</latestUpdateTime></station><station><id>8</id><name>Union Square - Brighton Ave. at Cambridge St.</name><terminalName>A32001</terminalName><lastCommWithServer>1381763007644</lastCommWithServer><lat>42.353334</lat><long>-71.137313</long><installed>true</installed><locked>false</locked><installDate>1364230800000</installDate><removalDate/><temporary>false</temporary><public>true</public><nbBikes>10</nbBikes><nbEmptyDocks>5</nbEmptyDocks><latestUpdateTime>1381763006023</latestUpdateTime></station><station><id>9</id><name>Agganis Arena - 925 Comm Ave.</name><terminalName>A32002</terminalName><lastCommWithServer>1381763092147</lastCommWithServer><lat>42.351313</lat><long>-71.116174</long><installed>true</installed><locked>false</locked><installDate>1364918400000</installDate><removalDate>1353425280000</removalDate><temporary>false</temporary><public>true</public><nbBikes>10</nbBikes><nbEmptyDocks>8</nbEmptyDocks><latestUpdateTime>1381761400937</latestUpdateTime></station><station><id>10</id><name>B.U. Central - 725 Comm. Ave.</name><terminalName>A32003</terminalName><lastCommWithServer>1381763049105</lastCommWithServer><lat>42.350075</lat><long>-71.105884</long><installed>true</installed><locked>false</locked><installDate>1364914800000</installDate><removalDate>1353423600000</removalDate><temporary>false</temporary><public>true</public><nbBikes>10</nbBikes><nbEmptyDocks>9</nbEmptyDocks><latestUpdateTime>1381763048438</latestUpdateTime></station><station><id>11</id><name>Longwood Ave / Binney St</name><terminalName>A32004</terminalName><lastCommWithServer>1381763112555</lastCommWithServer><lat>42.338629</lat><long>-71.1065</long><installed>true</installed><locked>false</locked><installDate>1363276800000</installDate><removalDate/><temporary>false</temporary><public>true</public><nbBikes>7</nbBikes><nbEmptyDocks>8</nbEmptyDocks><latestUpdateTime>1381762146299</latestUpdateTime></station><station><id>12</id><name>Ruggles Station / Columbus Ave.</name><terminalName>B32002</terminalName><lastCommWithServer>1381763186046</lastCommWithServer><lat>42.335911</lat><long>-71.088496</long><installed>true</installed><locked>false</locked><installDate>1362502800000</installDate><removalDate/><temporary>false</temporary><public>true</public><nbBikes>0</nbBikes><nbEmptyDocks>13</nbEmptyDocks><latestUpdateTime>1381762060164</latestUpdateTime></station><station><id>13</id><name>Boston Medical Center -  East Concord at Harrison Ave</name><terminalName>C32002</terminalName><lastCommWithServer>1381763082099</lastCommWithServer><lat>42.336437</lat><long>-71.073089</long><installed>true</installed><locked>false</locked><installDate>1369346640000</installDate><removalDate/><temporary>false</temporary><public>true</public><nbBikes>11</nbBikes><nbEmptyDocks>8</nbEmptyDocks><latestUpdateTime>1381763081289</latestUpdateTime></station><station><id>14</id><name>HMS / HSPH - Ave. Louis Pasteur at Longwood Ave.</name><terminalName>B32003</terminalName><lastCommWithServer>1381763134340</lastCommWithServer><lat>42.337171</lat><long>-71.102797</long><installed>true</installed><locked>false</locked><installDate>1362499200000</installDate><removalDate/><temporary>false</temporary><public>true</public><nbBikes>7</nbBikes><nbEmptyDocks>8</nbEmptyDocks><latestUpdateTime>1381763132977</latestUpdateTime></station><station><id>15</id><name>Harvard Real Estate - Brighton Mills - 370 Western Ave</name><terminalName>A32005</terminalName><lastCommWithServer>1381763206868</lastCommWithServer><lat>42.361667</lat><long>-71.13802</long><installed>true</installed><locked>false</locked><installDate>1363179600000</installDate><removalDate/><temporary>false</temporary><public>true</public><nbBikes>10</nbBikes><nbEmptyDocks>5</nbEmptyDocks><latestUpdateTime>1381761516442</latestUpdateTime></station><station><id>16</id><name>Back Bay / South End Station</name><terminalName>C32003</terminalName><lastCommWithServer>1381763091733</lastCommWithServer><lat>42.347433</lat><long>-71.076163</long><installed>true</installed><locked>false</locked><installDate>1362589200000</installDate><removalDate/><temporary>false</temporary><public>true</public><nbBikes>9</nbBikes><nbEmptyDocks>10</nbEmptyDocks><latestUpdateTime>1381761640658</latestUpdateTime></station><station><id>17</id><name>Harvard University Housing - 111 Western Ave. at Soldiers Field Park </name><terminalName>A32006</terminalName><lastCommWithServer>1381763200961</lastCommWithServer><lat>42.365074</lat><long>-71.119581</long><installed>true</installed><locked>false</locked><installDate>1363186800000</installDate><removalDate/><temporary>false</temporary><public>true</public><nbBikes>7</nbBikes><nbEmptyDocks>8</nbEmptyDocks><latestUpdateTime>1381762047227</latestUpdateTime></station><station><id>18</id><name>Harvard Real Estate - 219 Western Ave. at North Harvard St.</name><terminalName>A32007</terminalName><lastCommWithServer>1381763172403</lastCommWithServer><lat>42.36337</lat><long>-71.129791</long><installed>true</installed><locked>false</locked><installDate>1363183200000</installDate><removalDate/><temporary>false</temporary><public>true</public><nbBikes>7</nbBikes><nbEmptyDocks>8</nbEmptyDocks><latestUpdateTime>1381760196114</latestUpdateTime></station><station><id>19</id><name>Buswell Park</name><terminalName>A32008</terminalName><lastCommWithServer>1381763234956</lastCommWithServer><lat>42.347527</lat><long>-71.105828</long><installed>true</installed><locked>false</locked><installDate>1364922000000</installDate><removalDate>1353422160000</removalDate><temporary>false</temporary><public>true</public><nbBikes>2</nbBikes><nbEmptyDocks>13</nbEmptyDocks><latestUpdateTime>1381761301506</latestUpdateTime></station><station><id>20</id><name>Aquarium Station - 200 Atlantic Ave.</name><terminalName>B32004</terminalName><lastCommWithServer>1381763107562</lastCommWithServer><lat>42.35977</lat><long>-71.051601</long><installed>true</installed><locked>false</locked><installDate>1363111200000</installDate><removalDate>1354298640000</removalDate><temporary>false</temporary><public>true</public><nbBikes>14</nbBikes><nbEmptyDocks>5</nbEmptyDocks><latestUpdateTime>1381762623749</latestUpdateTime></station><station><id>21</id><name>Prudential Center / Belvidere</name><terminalName>C32007</terminalName><lastCommWithServer>1381763012049</lastCommWithServer><lat>42.345959</lat><long>-71.082578</long><installed>true</installed><locked>false</locked><installDate>1363269600000</installDate><removalDate/><temporary>false</temporary><public>true</public><nbBikes>4</nbBikes><nbEmptyDocks>21</nbEmptyDocks><latestUpdateTime>1381762743860</latestUpdateTime></station><station><id>22</id><name>South Station - 700 Atlantic Ave.</name><terminalName>A32010</terminalName><lastCommWithServer>1381763119015</lastCommWithServer><lat>42.352175</lat><long>-71.055547</long><installed>true</installed><locked>false</locked><installDate>1364828400000</installDate><removalDate>1354298640000</removalDate><temporary>false</temporary><public>true</public><nbBikes>18</nbBikes><nbEmptyDocks>29</nbEmptyDocks><latestUpdateTime>1381760787883</latestUpdateTime></station><station><id>23</id><name>Mayor Thomas M. Menino - Government Center</name><terminalName>B32008</terminalName><lastCommWithServer>1381763179794</lastCommWithServer><lat>42.35892</lat><long>-71.057629</long><installed>true</installed><locked>false</locked><installDate>1362582000000</installDate><removalDate/><temporary>false</temporary><public>true</public><nbBikes>11</nbBikes><nbEmptyDocks>10</nbEmptyDocks><latestUpdateTime>1381760890892</latestUpdateTime></station><station><id>24</id><name>Seaport Square - Seaport Blvd. at Boston Wharf</name><terminalName>B32007</terminalName><lastCommWithServer>1381763139908</lastCommWithServer><lat>42.351821</lat><long>-71.045461</long><installed>true</installed><locked>false</locked><installDate>1363100400000</installDate><removalDate/><temporary>false</temporary><public>true</public><nbBikes>8</nbBikes><nbEmptyDocks>11</nbEmptyDocks><latestUpdateTime>1381760520529</latestUpdateTime></station><station><id>25</id><name>Tremont St / W Newton St</name><terminalName>A32009</terminalName><lastCommWithServer>1381763148673</lastCommWithServer><lat>42.341332</lat><long>-71.076847</long><installed>true</installed><locked>false</locked><installDate>1362416400000</installDate><removalDate>1354113720000</removalDate><temporary>false</temporary><public>true</public><nbBikes>0</nbBikes><nbEmptyDocks>15</nbEmptyDocks><latestUpdateTime>1381763148304</latestUpdateTime></station><station><id>26</id><name>Washington St. at Waltham St.</name><terminalName>D32002</terminalName><lastCommWithServer>1381763022119</lastCommWithServer><lat>42.341522</lat><long>-71.068922</long><installed>true</installed><locked>false</locked><installDate>1365001200000</installDate><removalDate>1353350640000</removalDate><temporary>false</temporary><public>true</public><nbBikes>7</nbBikes><nbEmptyDocks>8</nbEmptyDocks><latestUpdateTime>1381763019421</latestUpdateTime></station><station><id>27</id><name>Roxbury Crossing Station</name><terminalName>C32001</terminalName><lastCommWithServer>1381763084227</lastCommWithServer><lat>42.331567</lat><long>-71.094734</long><installed>true</installed><locked>false</locked><installDate>1362506400000</installDate><removalDate/><temporary>false</temporary><public>true</public><nbBikes>8</nbBikes><nbEmptyDocks>7</nbEmptyDocks><latestUpdateTime>1381761603136</latestUpdateTime></station><station><id>29</id><name>Innovation Lab - 125 Western Ave. at Batten Way</name><terminalName>A32011</terminalName><lastCommWithServer>1381763154876</lastCommWithServer><lat>42.363732</lat><long>-71.124565</long><installed>true</installed><locked>false</locked><installDate>1363190400000</installDate><removalDate/><temporary>false</temporary><public>true</public><nbBikes>6</nbBikes><nbEmptyDocks>9</nbEmptyDocks><latestUpdateTime>1381760342117</latestUpdateTime></station><station><id>30</id><name>Brigham Cir / Huntington Ave</name><terminalName>B32013</terminalName><lastCommWithServer>1381763180308</lastCommWithServer><lat>42.334073</lat><long>-71.105221</long><installed>true</installed><locked>false</locked><installDate>1365516000000</installDate><removalDate>1353343020000</removalDate><temporary>false</temporary><public>true</public><nbBikes>5</nbBikes><nbEmptyDocks>10</nbEmptyDocks><latestUpdateTime>1381760123329</latestUpdateTime></station><station><id>31</id><name>Seaport Hotel</name><terminalName>B32014</terminalName><lastCommWithServer>1381763029191</lastCommWithServer><lat>42.348833</lat><long>-71.041747</long><installed>true</installed><locked>false</locked><installDate>1363104000000</installDate><removalDate/><temporary>false</temporary><public>true</public><nbBikes>9</nbBikes><nbEmptyDocks>5</nbEmptyDocks><latestUpdateTime>1381762160270</latestUpdateTime></station><station><id>32</id><name>Landmark Centre</name><terminalName>B32015</terminalName><lastCommWithServer>1381763120996</lastCommWithServer><lat>42.343912</lat><long>-71.102221</long><installed>true</installed><locked>false</locked><installDate>1362495600000</installDate><removalDate/><temporary>false</temporary><public>true</public><nbBikes>7</nbBikes><nbEmptyDocks>4</nbEmptyDocks><latestUpdateTime>1381762394558</latestUpdateTime></station><station><id>33</id><name>Kenmore Sq / Comm Ave</name><terminalName>B32010</terminalName><lastCommWithServer>1381763233936</lastCommWithServer><lat>42.349046</lat><long>-71.096831</long><installed>true</installed><locked>false</locked><installDate>1364911200000</installDate><removalDate>1354034820000</removalDate><temporary>false</temporary><public>true</public><nbBikes>3</nbBikes><nbEmptyDocks>15</nbEmptyDocks><latestUpdateTime>1381762991051</latestUpdateTime></station><station><id>35</id><name>Franklin St. / Arch St.</name><terminalName>D32004</terminalName><lastCommWithServer>1381762998284</lastCommWithServer><lat>42.355402</lat><long>-71.058087</long><installed>true</installed><locked>false</locked><installDate>1364486400000</installDate><removalDate>1354298640000</removalDate><temporary>false</temporary><public>true</public><nbBikes>7</nbBikes><nbEmptyDocks>14</nbEmptyDocks><latestUpdateTime>1381762272885</latestUpdateTime></station><station><id>36</id><name>Boston Public Library - 700 Boylston St.</name><terminalName>D32005</terminalName><lastCommWithServer>1381763180923</lastCommWithServer><lat>42.349673</lat><long>-71.077303</long><installed>true</installed><locked>false</locked><installDate>1367515920000</installDate><removalDate>1365512400000</removalDate><temporary>true</temporary><public>true</public><nbBikes>2</nbBikes><nbEmptyDocks>21</nbEmptyDocks><latestUpdateTime>1381762695387</latestUpdateTime></station><station><id>37</id><name>New Balance - Guest St. at Life St.</name><terminalName>D32001</terminalName><lastCommWithServer>1381763065893</lastCommWithServer><lat>42.356975</lat><long>-71.145442</long><installed>true</installed><locked>false</locked><installDate>1366984800000</installDate><removalDate>1354124460000</removalDate><temporary>false</temporary><public>true</public><nbBikes>9</nbBikes><nbEmptyDocks>6</nbEmptyDocks><latestUpdateTime>1381760053577</latestUpdateTime></station><station><id>38</id><name>TD Garden - Causeway at Portal Park #2</name><terminalName>D32003</terminalName><lastCommWithServer>1381763084918</lastCommWithServer><lat>42.366222</lat><long>-71.059914</long><installed>true</installed><locked>false</locked><installDate>1364821200000</installDate><removalDate>1354193580000</removalDate><temporary>false</temporary><public>true</public><nbBikes>23</nbBikes><nbEmptyDocks>4</nbEmptyDocks><latestUpdateTime>1381763084517</latestUpdateTime></station><station><id>39</id><name>Washington St. at Rutland St.</name><terminalName>C32006</terminalName><lastCommWithServer>1381763162920</lastCommWithServer><lat>42.338623</lat><long>-71.074182</long><installed>true</installed><locked>false</locked><installDate>1364997600000</installDate><removalDate>1354116300000</removalDate><temporary>false</temporary><public>true</public><nbBikes>4</nbBikes><nbEmptyDocks>14</nbEmptyDocks><latestUpdateTime>1381762920835</latestUpdateTime></station><station><id>40</id><name>Lewis Wharf - Atlantic Ave.</name><terminalName>D32006</terminalName><lastCommWithServer>1381763027997</lastCommWithServer><lat>42.363871</lat><long>-71.050877</long><installed>true</installed><locked>false</locked><installDate>1362578400000</installDate><removalDate/><temporary>false</temporary><public>true</public><nbBikes>8</nbBikes><nbEmptyDocks>7</nbEmptyDocks><latestUpdateTime>1381761577919</latestUpdateTime></station><station><id>41</id><name>Packard's Corner - Comm. Ave. at Brighton Ave.</name><terminalName>A32012</terminalName><lastCommWithServer>1381763115133</lastCommWithServer><lat>42.352261</lat><long>-71.123831</long><installed>true</installed><locked>false</locked><installDate>1363194000000</installDate><removalDate/><temporary>false</temporary><public>true</public><nbBikes>3</nbBikes><nbEmptyDocks>16</nbEmptyDocks><latestUpdateTime>1381759761005</latestUpdateTime></station><station><id>42</id><name>Boylston St. at Arlington St.</name><terminalName>D32007</terminalName><lastCommWithServer>1381763061867</lastCommWithServer><lat>42.352096</lat><long>-71.070378</long><installed>true</installed><locked>false</locked><installDate>1365004800000</installDate><removalDate>1354031640000</removalDate><temporary>false</temporary><public>true</public><nbBikes>21</nbBikes><nbEmptyDocks>1</nbEmptyDocks><latestUpdateTime>1381763060102</latestUpdateTime></station><station><id>43</id><name>Rowes Wharf - Atlantic Ave</name><terminalName>D32008</terminalName><lastCommWithServer>1381763120255</lastCommWithServer><lat>42.357143</lat><long>-71.050699</long><installed>true</installed><locked>false</locked><installDate>1364839200000</installDate><removalDate>1354193520000</removalDate><temporary>false</temporary><public>true</public><nbBikes>15</nbBikes><nbEmptyDocks>0</nbEmptyDocks><latestUpdateTime>1381761415108</latestUpdateTime></station><station><id>44</id><name>Faneuil Hall - Union St. at North St.</name><terminalName>D32009</terminalName><lastCommWithServer>1381763107034</lastCommWithServer><lat>42.360583</lat><long>-71.056868</long><installed>true</installed><locked>false</locked><installDate>1364479200000</installDate><removalDate>1354193520000</removalDate><temporary>false</temporary><public>true</public><nbBikes>5</nbBikes><nbEmptyDocks>14</nbEmptyDocks><latestUpdateTime>1381755714292</latestUpdateTime></station><station><id>45</id><name>Yawkey Way at Boylston St.</name><terminalName>B32011</terminalName><lastCommWithServer>1381763069439</lastCommWithServer><lat>42.344763</lat><long>-71.09788</long><installed>true</installed><locked>false</locked><installDate>1365519600000</installDate><removalDate>1353420900000</removalDate><temporary>false</temporary><public>true</public><nbBikes>5</nbBikes><nbEmptyDocks>14</nbEmptyDocks><latestUpdateTime>1381761620001</latestUpdateTime></station><station><id>46</id><name>Christian Science Plaza</name><terminalName>B32005</terminalName><lastCommWithServer>1381763220187</lastCommWithServer><lat>42.343864</lat><long>-71.085918</long><installed>true</installed><locked>false</locked><installDate>1362492000000</installDate><removalDate/><temporary>false</temporary><public>true</public><nbBikes>9</nbBikes><nbEmptyDocks>10</nbEmptyDocks><latestUpdateTime>1381763219669</latestUpdateTime></station><station><id>47</id><name>Cross St. at Hanover St.</name><terminalName>D32010</terminalName><lastCommWithServer>1381763124313</lastCommWithServer><lat>42.362811</lat><long>-71.056067</long><installed>true</installed><locked>false</locked><installDate>1365181200000</installDate><removalDate>1354193520000</removalDate><temporary>false</temporary><public>true</public><nbBikes>7</nbBikes><nbEmptyDocks>11</nbEmptyDocks><latestUpdateTime>1381762398702</latestUpdateTime></station><station><id>48</id><name>Post Office Square</name><terminalName>D32012</terminalName><lastCommWithServer>1381763065555</lastCommWithServer><lat>42.356755</lat><long>-71.055407</long><installed>true</installed><locked>false</locked><installDate>1364482800000</installDate><removalDate>1354298580000</removalDate><temporary>false</temporary><public>true</public><nbBikes>12</nbBikes><nbEmptyDocks>7</nbEmptyDocks><latestUpdateTime>1381762822974</latestUpdateTime></station><station><id>49</id><name>Stuart St. at Charles St.</name><terminalName>D32011</terminalName><lastCommWithServer>1381763192387</lastCommWithServer><lat>42.351146</lat><long>-71.066289</long><installed>true</installed><locked>false</locked><installDate>1362409200000</installDate><removalDate/><temporary>false</temporary><public>true</public><nbBikes>1</nbBikes><nbEmptyDocks>17</nbEmptyDocks><latestUpdateTime>1381762895724</latestUpdateTime></station><station><id>50</id><name>Boylston St / Berkeley St</name><terminalName>D32013</terminalName><lastCommWithServer>1381763163200</lastCommWithServer><lat>42.350989</lat><long>-71.073644</long><installed>true</installed><locked>false</locked><installDate>1367521860000</installDate><removalDate>1354029480000</removalDate><temporary>false</temporary><public>true</public><nbBikes>5</nbBikes><nbEmptyDocks>10</nbEmptyDocks><latestUpdateTime>1381762127252</latestUpdateTime></station><station><id>51</id><name>Washington St. at Lenox St.</name><terminalName>C32005</terminalName><lastCommWithServer>1381763073938</lastCommWithServer><lat>42.3348756</lat><long>-71.0790969</long><installed>true</installed><locked>false</locked><installDate>1364227200000</installDate><removalDate>1353341940000</removalDate><temporary>false</temporary><public>true</public><nbBikes>10</nbBikes><nbEmptyDocks>5</nbEmptyDocks><latestUpdateTime>1381763071917</latestUpdateTime></station><station><id>52</id><name>Newbury St / Hereford St</name><terminalName>B32000</terminalName><lastCommWithServer>1381763194149</lastCommWithServer><lat>42.348717</lat><long>-71.085954</long><installed>true</installed><locked>false</locked><installDate>1365008400000</installDate><removalDate>1354032900000</removalDate><temporary>false</temporary><public>true</public><nbBikes>9</nbBikes><nbEmptyDocks>10</nbEmptyDocks><latestUpdateTime>1381762405187</latestUpdateTime></station><station><id>53</id><name>Beacon St / Mass Ave</name><terminalName>B32016</terminalName><lastCommWithServer>1381763115819</lastCommWithServer><lat>42.350851</lat><long>-71.089886</long><installed>true</installed><locked>false</locked><installDate>1364907600000</installDate><removalDate>1354033260000</removalDate><temporary>false</temporary><public>true</public><nbBikes>3</nbBikes><nbEmptyDocks>15</nbEmptyDocks><latestUpdateTime>1381763114519</latestUpdateTime></station><station><id>54</id><name>Tremont St / West St</name><terminalName>D32014</terminalName><lastCommWithServer>1381763099691</lastCommWithServer><lat>42.354979</lat><long>-71.063348</long><installed>true</installed><locked>false</locked><installDate>1362405600000</installDate><removalDate/><temporary>false</temporary><public>true</public><nbBikes>6</nbBikes><nbEmptyDocks>9</nbEmptyDocks><latestUpdateTime>1381762941453</latestUpdateTime></station><station><id>55</id><name>Boylston / Mass Ave</name><terminalName>B32018</terminalName><lastCommWithServer>1381763070523</lastCommWithServer><lat>42.347265</lat><long>-71.088088</long><installed>true</installed><locked>false</locked><installDate>1365177600000</installDate><removalDate>1354023540000</removalDate><temporary>false</temporary><public>true</public><nbBikes>8</nbBikes><nbEmptyDocks>7</nbEmptyDocks><latestUpdateTime>1381762346630</latestUpdateTime></station><station><id>56</id><name>Dudley Square</name><terminalName>B32017</terminalName><lastCommWithServer>1381763014342</lastCommWithServer><lat>42.328654</lat><long>-71.084198</long><installed>true</installed><locked>false</locked><installDate>1364223600000</installDate><removalDate/><temporary>false</temporary><public>true</public><nbBikes>8</nbBikes><nbEmptyDocks>7</nbEmptyDocks><latestUpdateTime>1381762530887</latestUpdateTime></station><station><id>57</id><name>Columbus Ave. at Mass. Ave.</name><terminalName>C32004</terminalName><lastCommWithServer>1381763047947</lastCommWithServer><lat>42.340799</lat><long>-71.081572</long><installed>true</installed><locked>false</locked><installDate>1362420000000</installDate><removalDate/><temporary>false</temporary><public>true</public><nbBikes>0</nbBikes><nbEmptyDocks>11</nbEmptyDocks><latestUpdateTime>1381761059056</latestUpdateTime></station><station><id>58</id><name>The Esplanade - Beacon St. at Arlington St.</name><terminalName>D32017</terminalName><lastCommWithServer>1381763063516</lastCommWithServer><lat>42.355596</lat><long>-71.07278</long><installed>true</installed><locked>false</locked><installDate>1364310000000</installDate><removalDate/><temporary>false</temporary><public>true</public><nbBikes>10</nbBikes><nbEmptyDocks>9</nbEmptyDocks><latestUpdateTime>1381762579750</latestUpdateTime></station><station><id>59</id><name>Chinatown Gate Plaza - Surface Rd. at Beach St.</name><terminalName>D32015</terminalName><lastCommWithServer>1381763206287</lastCommWithServer><lat>42.351356</lat><long>-71.059367</long><installed>true</installed><locked>false</locked><installDate>1364835600000</installDate><removalDate>1354118520000</removalDate><temporary>false</temporary><public>true</public><nbBikes>11</nbBikes><nbEmptyDocks>4</nbEmptyDocks><latestUpdateTime>1381761757006</latestUpdateTime></station><station><id>60</id><name>Charles Circle - Charles St. at Cambridge St.</name><terminalName>D32016</terminalName><lastCommWithServer>1381763121128</lastCommWithServer><lat>42.36069</lat><long>-71.070884</long><installed>true</installed><locked>false</locked><installDate>1364313600000</installDate><removalDate/><temporary>false</temporary><public>true</public><nbBikes>7</nbBikes><nbEmptyDocks>8</nbEmptyDocks><latestUpdateTime>1381762636511</latestUpdateTime></station><station><id>61</id><name>Boylston at Fairfield</name><terminalName>C32008</terminalName><lastCommWithServer>1381763089598</lastCommWithServer><lat>42.348762</lat><long>-71.082383</long><installed>true</installed><locked>false</locked><installDate>1367511660000</installDate><removalDate>1354025760000</removalDate><temporary>false</temporary><public>true</public><nbBikes>6</nbBikes><nbEmptyDocks>13</nbEmptyDocks><latestUpdateTime>1381762606574</latestUpdateTime></station><station><id>62</id><name>Longwood Ave/Riverway</name><terminalName>B32019</terminalName><lastCommWithServer>1381763119238</lastCommWithServer><lat>42.340299</lat><long>-71.109927</long><installed>true</installed><locked>false</locked><installDate>1363273200000</installDate><removalDate/><temporary>false</temporary><public>true</public><nbBikes>8</nbBikes><nbEmptyDocks>7</nbEmptyDocks><latestUpdateTime>1381761910436</latestUpdateTime></station><station><id>63</id><name>Dorchester Ave. at Gillette Park</name><terminalName>C32009</terminalName><lastCommWithServer>1381763200874</lastCommWithServer><lat>42.344023</lat><long>-71.057054</long><installed>true</installed><locked>false</locked><installDate>1362592800000</installDate><removalDate/><temporary>false</temporary><public>true</public><nbBikes>3</nbBikes><nbEmptyDocks>11</nbEmptyDocks><latestUpdateTime>1381762041445</latestUpdateTime></station><station><id>64</id><name>Congress / Sleeper</name><terminalName>C32010</terminalName><lastCommWithServer>1381763211089</lastCommWithServer><lat>42.3511</lat><long>-71.0496</long><installed>true</installed><locked>false</locked><installDate>1364490000000</installDate><removalDate>1354298580000</removalDate><temporary>false</temporary><public>true</public><nbBikes>14</nbBikes><nbEmptyDocks>5</nbEmptyDocks><latestUpdateTime>1381762612084</latestUpdateTime></station><station><id>65</id><name>Boston Convention &amp; Exhibition Center</name><terminalName>D32018</terminalName><lastCommWithServer>1381763093143</lastCommWithServer><lat>42.3475</lat><long>-71.0441</long><installed>true</installed><locked>false</locked><installDate>1363096800000</installDate><removalDate/><temporary>false</temporary><public>true</public><nbBikes>10</nbBikes><nbEmptyDocks>9</nbEmptyDocks><latestUpdateTime>1381762126816</latestUpdateTime></station><station><id>66</id><name>Allston Green District - Commonwealth Ave &amp; Griggs St</name><terminalName>A32017</terminalName><lastCommWithServer>1381763187441</lastCommWithServer><lat>42.348607</lat><long>-71.13401</long><installed>true</installed><locked>false</locked><installDate>1365523200000</installDate><removalDate>1353428040000</removalDate><temporary>false</temporary><public>true</public><nbBikes>3</nbBikes><nbEmptyDocks>11</nbEmptyDocks><latestUpdateTime>1381760241771</latestUpdateTime></station><station><id>67</id><name>MIT at Mass Ave / Amherst St</name><terminalName>M32006</terminalName><lastCommWithServer>1381763211973</lastCommWithServer><lat>42.3581</lat><long>-71.093198</long><installed>true</installed><locked>false</locked><installDate>1363352400000</installDate><removalDate/><temporary>false</temporary><public>true</public><nbBikes>5</nbBikes><nbEmptyDocks>22</nbEmptyDocks><latestUpdateTime>1381763211431</latestUpdateTime></station><station><id>68</id><name>Central Square at Mass Ave / Essex St</name><terminalName>M32011</terminalName><lastCommWithServer>1381763229809</lastCommWithServer><lat>42.36507</lat><long>-71.1031</long><installed>true</installed><locked>false</locked><installDate>1363611600000</installDate><removalDate/><temporary>false</temporary><public>true</public><nbBikes>18</nbBikes><nbEmptyDocks>1</nbEmptyDocks><latestUpdateTime>1381763228884</latestUpdateTime></station><station><id>69</id><name>Coolidge Corner - Beacon St @ Centre St</name><terminalName>K32001</terminalName><lastCommWithServer>1381763230489</lastCommWithServer><lat>42.341598</lat><long>-71.123338</long><installed>true</installed><locked>false</locked><installDate>1364396400000</installDate><removalDate/><temporary>false</temporary><public>true</public><nbBikes>12</nbBikes><nbEmptyDocks>7</nbEmptyDocks><latestUpdateTime>1381762746619</latestUpdateTime></station><station><id>70</id><name>Harvard Kennedy School at Bennett St / Eliot St</name><terminalName>M32016</terminalName><lastCommWithServer>1381763170252</lastCommWithServer><lat>42.372244</lat><long>-71.121851</long><installed>true</installed><locked>false</locked><installDate>1363626000000</installDate><removalDate/><temporary>false</temporary><public>true</public><nbBikes>6</nbBikes><nbEmptyDocks>17</nbEmptyDocks><latestUpdateTime>1381762685837</latestUpdateTime></station><station><id>71</id><name>Conway Park - Somerville Avenue</name><terminalName>S32004</terminalName><lastCommWithServer>1381763204577</lastCommWithServer><lat>42.383405</lat><long>-71.107593</long><installed>true</installed><locked>false</locked><installDate>1364576400000</installDate><removalDate/><temporary>false</temporary><public>true</public><nbBikes>5</nbBikes><nbEmptyDocks>10</nbEmptyDocks><latestUpdateTime>1381761030758</latestUpdateTime></station><station><id>72</id><name>One Broadway / Kendall Sq at Main St / 3rd St</name><terminalName>M32003</terminalName><lastCommWithServer>1381763208191</lastCommWithServer><lat>42.362613</lat><long>-71.084105</long><installed>true</installed><locked>false</locked><installDate>1363363200000</installDate><removalDate/><temporary>false</temporary><public>true</public><nbBikes>0</nbBikes><nbEmptyDocks>15</nbEmptyDocks><latestUpdateTime>1381759946824</latestUpdateTime></station><station><id>73</id><name>Harvard Square at Brattle St / Eliot St</name><terminalName>M32017</terminalName><lastCommWithServer>1381763191835</lastCommWithServer><lat>42.373231</lat><long>-71.120886</long><installed>true</installed><locked>false</locked><installDate>1363622400000</installDate><removalDate/><temporary>false</temporary><public>true</public><nbBikes>9</nbBikes><nbEmptyDocks>6</nbEmptyDocks><latestUpdateTime>1381762464826</latestUpdateTime></station><station><id>74</id><name>Harvard Square at Mass Ave/ Dunster</name><terminalName>M32018</terminalName><lastCommWithServer>1381763205723</lastCommWithServer><lat>42.373268</lat><long>-71.118579</long><installed>true</installed><locked>false</locked><installDate>1363618800000</installDate><removalDate/><temporary>false</temporary><public>true</public><nbBikes>19</nbBikes><nbEmptyDocks>0</nbEmptyDocks><latestUpdateTime>1381762479750</latestUpdateTime></station><station><id>75</id><name>Lafayette Square at Mass Ave / Main St / Columbia St</name><terminalName>M32009</terminalName><lastCommWithServer>1381763164630</lastCommWithServer><lat>42.363562</lat><long>-71.10042</long><installed>true</installed><locked>false</locked><installDate>1365084000000</installDate><removalDate>1353945060000</removalDate><temporary>false</temporary><public>true</public><nbBikes>6</nbBikes><nbEmptyDocks>13</nbEmptyDocks><latestUpdateTime>1381763163106</latestUpdateTime></station><station><id>76</id><name>Central Sq Post Office / Cambridge City Hall at Mass Ave / Pleasant St</name><terminalName>M32012</terminalName><lastCommWithServer>1381763039311</lastCommWithServer><lat>42.366426</lat><long>-71.105495</long><installed>true</installed><locked>false</locked><installDate>1363615200000</installDate><removalDate/><temporary>false</temporary><public>true</public><nbBikes>14</nbBikes><nbEmptyDocks>2</nbEmptyDocks><latestUpdateTime>1381762451540</latestUpdateTime></station><station><id>77</id><name>Somerville City Hall</name><terminalName>S32001</terminalName><lastCommWithServer>1381763154344</lastCommWithServer><lat>42.386428</lat><long>-71.096413</long><installed>true</installed><locked>false</locked><installDate>1364565600000</installDate><removalDate/><temporary>false</temporary><public>true</public><nbBikes>5</nbBikes><nbEmptyDocks>10</nbEmptyDocks><latestUpdateTime>1381762187617</latestUpdateTime></station><station><id>78</id><name>Union Square - Somerville</name><terminalName>S32002</terminalName><lastCommWithServer>1381763075924</lastCommWithServer><lat>42.379637</lat><long>-71.095319</long><installed>true</installed><locked>false</locked><installDate>1364562000000</installDate><removalDate/><temporary>false</temporary><public>true</public><nbBikes>8</nbBikes><nbEmptyDocks>11</nbEmptyDocks><latestUpdateTime>1381761082657</latestUpdateTime></station><station><id>79</id><name>Beacon St at Washington / Kirkland</name><terminalName>S32003</terminalName><lastCommWithServer>1381763201297</lastCommWithServer><lat>42.378551</lat><long>-71.106541</long><installed>true</installed><locked>false</locked><installDate>1365170400000</installDate><removalDate>1353940740000</removalDate><temporary>false</temporary><public>true</public><nbBikes>5</nbBikes><nbEmptyDocks>9</nbEmptyDocks><latestUpdateTime>1381762958465</latestUpdateTime></station><station><id>80</id><name>MIT Stata Center at Vassar St / Main St</name><terminalName>M32005</terminalName><lastCommWithServer>1381762999881</lastCommWithServer><lat>42.362429</lat><long>-71.090188</long><installed>true</installed><locked>false</locked><installDate>1363356000000</installDate><removalDate/><temporary>false</temporary><public>true</public><nbBikes>10</nbBikes><nbEmptyDocks>14</nbEmptyDocks><latestUpdateTime>1381762514866</latestUpdateTime></station><station><id>81</id><name>Boylston St / Washington St</name><terminalName>D32019</terminalName><lastCommWithServer>1381763109480</lastCommWithServer><lat>42.352409</lat><long>-71.062679</long><installed>true</installed><locked>false</locked><installDate>1364220000000</installDate><removalDate/><temporary>false</temporary><public>true</public><nbBikes>9</nbBikes><nbEmptyDocks>4</nbEmptyDocks><latestUpdateTime>1381762384185</latestUpdateTime></station><station><id>82</id><name>Washington Square at Washington St. / Beacon St.</name><terminalName>K32002</terminalName><lastCommWithServer>1381763150604</lastCommWithServer><lat>42.339335</lat><long>-71.13493</long><installed>true</installed><locked>false</locked><installDate>1366995600000</installDate><removalDate/><temporary>false</temporary><public>true</public><nbBikes>10</nbBikes><nbEmptyDocks>5</nbEmptyDocks><latestUpdateTime>1381760977072</latestUpdateTime></station><station><id>83</id><name>South Bay Plaza</name><terminalName>C32011</terminalName><lastCommWithServer>1381763093543</lastCommWithServer><lat>42.325941</lat><long>-71.065928</long><installed>true</installed><locked>false</locked><installDate>1363266000000</installDate><removalDate>1353339300000</removalDate><temporary>false</temporary><public>true</public><nbBikes>10</nbBikes><nbEmptyDocks>5</nbEmptyDocks><latestUpdateTime>1381762610136</latestUpdateTime></station><station><id>84</id><name>CambridgeSide Galleria - CambridgeSide PL at Land Blvd</name><terminalName>M32019</terminalName><lastCommWithServer>1381763111491</lastCommWithServer><lat>42.366981</lat><long>-71.076472</long><installed>true</installed><locked>false</locked><installDate>1363366800000</installDate><removalDate/><temporary>false</temporary><public>true</public><nbBikes>9</nbBikes><nbEmptyDocks>6</nbEmptyDocks><latestUpdateTime>1381762143465</latestUpdateTime></station><station><id>85</id><name>Spaulding Rehabilitation Hospital - Charlestown Navy Yard</name><terminalName>D32023</terminalName><lastCommWithServer>1381763187902</lastCommWithServer><lat>42.378338</lat><long>-71.048927</long><installed>true</installed><locked>false</locked><installDate>1368188340000</installDate><removalDate>1353339360000</removalDate><temporary>false</temporary><public>true</public><nbBikes>5</nbBikes><nbEmptyDocks>13</nbEmptyDocks><latestUpdateTime>1381762461277</latestUpdateTime></station><station><id>86</id><name>Brookline Village - Station Street @ MBTA</name><terminalName>K32003</terminalName><lastCommWithServer>1381763161672</lastCommWithServer><lat>42.332799</lat><long>-71.116205</long><installed>true</installed><locked>false</locked><installDate>1364400000000</installDate><removalDate/><temporary>false</temporary><public>true</public><nbBikes>8</nbBikes><nbEmptyDocks>6</nbEmptyDocks><latestUpdateTime>1381759755433</latestUpdateTime></station><station><id>87</id><name>Harvard University Housing - 115 Putnam Ave at Peabody Terrace</name><terminalName>M32014</terminalName><lastCommWithServer>1381763090626</lastCommWithServer><lat>42.366621</lat><long>-71.114214</long><installed>true</installed><locked>false</locked><installDate>1364306400000</installDate><removalDate/><temporary>false</temporary><public>true</public><nbBikes>5</nbBikes><nbEmptyDocks>10</nbEmptyDocks><latestUpdateTime>1381763089223</latestUpdateTime></station><station><id>88</id><name>Inman Square at Vellucci Plaza / Hampshire St</name><terminalName>M32010</terminalName><lastCommWithServer>1381763094273</lastCommWithServer><lat>42.374035</lat><long>-71.101427</long><installed>true</installed><locked>false</locked><installDate>1363870800000</installDate><removalDate/><temporary>false</temporary><public>true</public><nbBikes>8</nbBikes><nbEmptyDocks>9</nbEmptyDocks><latestUpdateTime>1381761163223</latestUpdateTime></station><station><id>89</id><name>Harvard Law School at Mass Ave / Jarvis St</name><terminalName>M32020</terminalName><lastCommWithServer>1381763037141</lastCommWithServer><lat>42.379011</lat><long>-71.119945</long><installed>true</installed><locked>false</locked><installDate>1364389200000</installDate><removalDate/><temporary>false</temporary><public>true</public><nbBikes>2</nbBikes><nbEmptyDocks>17</nbEmptyDocks><latestUpdateTime>1381760796138</latestUpdateTime></station><station><id>90</id><name>Lechmere Station at Cambridge St / First St</name><terminalName>M32001</terminalName><lastCommWithServer>1381763021623</lastCommWithServer><lat>42.3707</lat><long>-71.07711</long><installed>true</installed><locked>false</locked><installDate>1365080400000</installDate><removalDate>1353947520000</removalDate><temporary>false</temporary><public>true</public><nbBikes>4</nbBikes><nbEmptyDocks>15</nbEmptyDocks><latestUpdateTime>1381762778790</latestUpdateTime></station><station><id>91</id><name>One Kendall Square at Hampshire St / Portland St</name><terminalName>M32002</terminalName><lastCommWithServer>1381763169982</lastCommWithServer><lat>42.366277</lat><long>-71.09169</long><installed>true</installed><locked>false</locked><installDate>1364392800000</installDate><removalDate/><temporary>false</temporary><public>true</public><nbBikes>9</nbBikes><nbEmptyDocks>11</nbEmptyDocks><latestUpdateTime>1381763168107</latestUpdateTime></station><station><id>92</id><name>University of Massachusetts Boston</name><terminalName>C32014</terminalName><lastCommWithServer>1381763179653</lastCommWithServer><lat>42.311819</lat><long>-71.035705</long><installed>true</installed><locked>false</locked><installDate>1363885200000</installDate><removalDate/><temporary>false</temporary><public>true</public><nbBikes>4</nbBikes><nbEmptyDocks>13</nbEmptyDocks><latestUpdateTime>1381691511564</latestUpdateTime></station><station><id>93</id><name>JFK / UMASS Station</name><terminalName>C32013</terminalName><lastCommWithServer>1381763099853</lastCommWithServer><lat>42.320494</lat><long>-71.051122</long><installed>true</installed><locked>false</locked><installDate>1364216400000</installDate><removalDate/><temporary>false</temporary><public>true</public><nbBikes>5</nbBikes><nbEmptyDocks>9</nbEmptyDocks><latestUpdateTime>1381718462791</latestUpdateTime></station><station><id>94</id><name>Charlestown - Main St at Austin St</name><terminalName>D32020</terminalName><lastCommWithServer>1381763070693</lastCommWithServer><lat>42.375603</lat><long>-71.064608</long><installed>true</installed><locked>false</locked><installDate>1364493600000</installDate><removalDate>1353348660000</removalDate><temporary>false</temporary><public>true</public><nbBikes>2</nbBikes><nbEmptyDocks>13</nbEmptyDocks><latestUpdateTime>1381762345560</latestUpdateTime></station><station><id>95</id><name>Cambridge St - at Columbia St / Webster Ave</name><terminalName>M32007</terminalName><lastCommWithServer>1381763137599</lastCommWithServer><lat>42.372969</lat><long>-71.094445</long><installed>true</installed><locked>false</locked><installDate>1363874400000</installDate><removalDate/><temporary>false</temporary><public>true</public><nbBikes>4</nbBikes><nbEmptyDocks>11</nbEmptyDocks><latestUpdateTime>1381762895383</latestUpdateTime></station><station><id>96</id><name>Cambridge Main Library at Broadway / Trowbridge St</name><terminalName>M32013</terminalName><lastCommWithServer>1381763169741</lastCommWithServer><lat>42.373379</lat><long>-71.111075</long><installed>true</installed><locked>false</locked><installDate>1363881600000</installDate><removalDate/><temporary>false</temporary><public>true</public><nbBikes>10</nbBikes><nbEmptyDocks>9</nbEmptyDocks><latestUpdateTime>1381762927523</latestUpdateTime></station><station><id>97</id><name>Harvard University River Houses / Plympton St at Memorial Drive</name><terminalName>M32015</terminalName><lastCommWithServer>1381763146133</lastCommWithServer><lat>42.369832</lat><long>-71.118201</long><installed>true</installed><locked>false</locked><installDate>1366981200000</installDate><removalDate>1367190780000</removalDate><temporary>false</temporary><public>true</public><nbBikes>2</nbBikes><nbEmptyDocks>17</nbEmptyDocks><latestUpdateTime>1381760883672</latestUpdateTime></station><station><id>98</id><name>Charlestown - Warren St at Chelsea St</name><terminalName>D32021</terminalName><lastCommWithServer>1381763098932</lastCommWithServer><lat>42.371848</lat><long>-71.060292</long><installed>true</installed><locked>false</locked><installDate>1363093200000</installDate><removalDate/><temporary>false</temporary><public>true</public><nbBikes>3</nbBikes><nbEmptyDocks>15</nbEmptyDocks><latestUpdateTime>1381762856719</latestUpdateTime></station><station><id>99</id><name>Wilson Square</name><terminalName>S32005</terminalName><lastCommWithServer>1381763051809</lastCommWithServer><lat>42.385582</lat><long>-71.113341</long><installed>true</installed><locked>false</locked><installDate>1365166800000</installDate><removalDate>1353939300000</removalDate><temporary>false</temporary><public>true</public><nbBikes>3</nbBikes><nbEmptyDocks>11</nbEmptyDocks><latestUpdateTime>1381753283628</latestUpdateTime></station><station><id>100</id><name>Davis Square</name><terminalName>S32006</terminalName><lastCommWithServer>1381763025908</lastCommWithServer><lat>42.396969</lat><long>-71.123024</long><installed>true</installed><locked>false</locked><installDate>1364569200000</installDate><removalDate/><temporary>false</temporary><public>true</public><nbBikes>18</nbBikes><nbEmptyDocks>6</nbEmptyDocks><latestUpdateTime>1381763023434</latestUpdateTime></station><station><id>101</id><name>Ball Square</name><terminalName>S32007</terminalName><lastCommWithServer>1381763198379</lastCommWithServer><lat>42.400146</lat><long>-71.112708</long><installed>true</installed><locked>false</locked><installDate>1365174000000</installDate><removalDate>1353937320000</removalDate><temporary>false</temporary><public>true</public><nbBikes>10</nbBikes><nbEmptyDocks>5</nbEmptyDocks><latestUpdateTime>1381756649671</latestUpdateTime></station><station><id>102</id><name>Powder House Circle</name><terminalName>S32008</terminalName><lastCommWithServer>1381763185003</lastCommWithServer><lat>42.400877</lat><long>-71.116772</long><installed>true</installed><locked>false</locked><installDate>1364572800000</installDate><removalDate/><temporary>false</temporary><public>true</public><nbBikes>3</nbBikes><nbEmptyDocks>12</nbEmptyDocks><latestUpdateTime>1381760947173</latestUpdateTime></station><station><id>103</id><name>JFK Crossing at Harvard St. / Thorndike St.</name><terminalName>K32004</terminalName><lastCommWithServer>1381763050240</lastCommWithServer><lat>42.346563</lat><long>-71.128374</long><installed>true</installed><locked>false</locked><installDate>1365094800000</installDate><removalDate/><temporary>false</temporary><public>true</public><nbBikes>5</nbBikes><nbEmptyDocks>10</nbEmptyDocks><latestUpdateTime>1381757640742</latestUpdateTime></station><station><id>104</id><name>Harvard University Radcliffe Quadrangle at Shepard St / Garden St</name><terminalName>M32024</terminalName><lastCommWithServer>1381763010040</lastCommWithServer><lat>42.380287</lat><long>-71.125107</long><installed>true</installed><locked>false</locked><installDate>1363878000000</installDate><removalDate/><temporary>false</temporary><public>true</public><nbBikes>10</nbBikes><nbEmptyDocks>9</nbEmptyDocks><latestUpdateTime>1381762047155</latestUpdateTime></station><station><id>105</id><name>Lower Cambridgeport at Magazine St/Riverside Rd</name><terminalName>M32022</terminalName><lastCommWithServer>1381763051766</lastCommWithServer><lat>42.356954</lat><long>-71.113687</long><installed>true</installed><locked>false</locked><installDate>1364302800000</installDate><removalDate/><temporary>false</temporary><public>true</public><nbBikes>7</nbBikes><nbEmptyDocks>12</nbEmptyDocks><latestUpdateTime>1381763051165</latestUpdateTime></station><station><id>106</id><name>Mt Pleasant Ave / Dudley Town Common</name><terminalName>C32015</terminalName><lastCommWithServer>1381763217599</lastCommWithServer><lat>42.325333</lat><long>-71.075354</long><installed>true</installed><locked>false</locked><installDate>1364994000000</installDate><removalDate>1354113660000</removalDate><temporary>false</temporary><public>true</public><nbBikes>3</nbBikes><nbEmptyDocks>12</nbEmptyDocks><latestUpdateTime>1381720142900</latestUpdateTime></station><station><id>107</id><name>Kendall T at Main St</name><terminalName>M32004</terminalName><lastCommWithServer>1381763214122</lastCommWithServer><lat>42.362457</lat><long>-71.08497</long><installed>true</installed><locked>false</locked><installDate>1363359600000</installDate><removalDate/><temporary>false</temporary><public>true</public><nbBikes>5</nbBikes><nbEmptyDocks>13</nbEmptyDocks><latestUpdateTime>1381762488437</latestUpdateTime></station><station><id>108</id><name>Harvard University / SEAS Cruft-Pierce Halls at 29 Oxford St</name><terminalName>M32023</terminalName><lastCommWithServer>1381763227956</lastCommWithServer><lat>42.377945</lat><long>-71.116865</long><installed>true</installed><locked>false</locked><installDate>1365091200000</installDate><removalDate>1353943260000</removalDate><temporary>true</temporary><public>true</public><nbBikes>12</nbBikes><nbEmptyDocks>5</nbEmptyDocks><latestUpdateTime>1381759846380</latestUpdateTime></station><station><id>109</id><name>TD Garden - Causeway at Portal Park #1</name><terminalName>D32022</terminalName><lastCommWithServer>1381763235067</lastCommWithServer><lat>42.365942</lat><long>-71.060515</long><installed>true</installed><locked>false</locked><installDate>1364824800000</installDate><removalDate/><temporary>true</temporary><public>true</public><nbBikes>15</nbBikes><nbEmptyDocks>11</nbEmptyDocks><latestUpdateTime>1381762026273</latestUpdateTime></station><station><id>110</id><name>Harvard University Gund Hall at Quincy St / Kirkland S</name><terminalName>M32021</terminalName><lastCommWithServer>1381763200058</lastCommWithServer><lat>42.376369</lat><long>-71.114025</long><installed>true</installed><locked>false</locked><installDate>1365087600000</installDate><removalDate/><temporary>false</temporary><public>true</public><nbBikes>9</nbBikes><nbEmptyDocks>6</nbEmptyDocks><latestUpdateTime>1381762474684</latestUpdateTime></station><station><id>111</id><name>Packard Ave / Powderhouse Blvd</name><terminalName>S32009</terminalName><lastCommWithServer>1381763016429</lastCommWithServer><lat>42.40449</lat><long>-71.123413</long><installed>true</installed><locked>false</locked><installDate>1373478900000</installDate><removalDate/><temporary>false</temporary><public>true</public><nbBikes>3</nbBikes><nbEmptyDocks>12</nbEmptyDocks><latestUpdateTime>1381762531794</latestUpdateTime></station><station><id>112</id><name>Somerville Hospital at Highland Ave / Crocker St</name><terminalName>S32010</terminalName><lastCommWithServer>1381763044431</lastCommWithServer><lat>42.39082</lat><long>-71.10942</long><installed>true</installed><locked>false</locked><installDate>1373478780000</installDate><removalDate/><temporary>false</temporary><public>true</public><nbBikes>6</nbBikes><nbEmptyDocks>9</nbEmptyDocks><latestUpdateTime>1381759124468</latestUpdateTime></station><station><id>113</id><name>Andrew Station - Dorchester Ave at Humboldt Pl</name><terminalName>C32012</terminalName><lastCommWithServer>1381763175961</lastCommWithServer><lat>42.330716</lat><long>-71.057044</long><installed>true</installed><locked>false</locked><installDate>1370272200000</installDate><removalDate/><temporary>false</temporary><public>true</public><nbBikes>7</nbBikes><nbEmptyDocks>7</nbEmptyDocks><latestUpdateTime>1381762208081</latestUpdateTime></station><station><id>114</id><name>Teele Square at 239 Holland St</name><terminalName>S32011</terminalName><lastCommWithServer>1381763233829</lastCommWithServer><lat>42.402763</lat><long>-71.126908</long><installed>true</installed><locked>false</locked><installDate>1373478960000</installDate><removalDate/><temporary>false</temporary><public>true</public><nbBikes>2</nbBikes><nbEmptyDocks>13</nbEmptyDocks><latestUpdateTime>1381763231871</latestUpdateTime></station><station><id>115</id><name>Porter Square Station</name><terminalName>M32029</terminalName><lastCommWithServer>1381763230219</lastCommWithServer><lat>42.387995</lat><long>-71.119084</long><installed>true</installed><locked>false</locked><installDate>1371495660000</installDate><removalDate/><temporary>false</temporary><public>true</public><nbBikes>4</nbBikes><nbEmptyDocks>15</nbEmptyDocks><latestUpdateTime>1381761039869</latestUpdateTime></station><station><id>116</id><name>359 Broadway - Broadway at Fayette Street</name><terminalName>M32026</terminalName><lastCommWithServer>1381763225255</lastCommWithServer><lat>42.370803</lat><long>-71.104412</long><installed>true</installed><locked>false</locked><installDate>1372788600000</installDate><removalDate/><temporary>false</temporary><public>true</public><nbBikes>11</nbBikes><nbEmptyDocks>8</nbEmptyDocks><latestUpdateTime>1381762740695</latestUpdateTime></station><station><id>117</id><name>Biogen Idec - Binney St / Sixth St</name><terminalName>M32027</terminalName><lastCommWithServer>1381763219783</lastCommWithServer><lat>42.366095</lat><long>-71.086388</long><installed>true</installed><locked>false</locked><installDate>1376071860000</installDate><removalDate/><temporary>false</temporary><public>true</public><nbBikes>15</nbBikes><nbEmptyDocks>4</nbEmptyDocks><latestUpdateTime>1381757942248</latestUpdateTime></station><station><id>118</id><name>Mass Ave / Linear Park</name><terminalName>M32025</terminalName><lastCommWithServer>1381763084402</lastCommWithServer><lat>42.397828</lat><long>-71.130516</long><installed>true</installed><locked>false</locked><installDate>1372787760000</installDate><removalDate/><temporary>false</temporary><public>true</public><nbBikes>13</nbBikes><nbEmptyDocks>6</nbEmptyDocks><latestUpdateTime>1381762841578</latestUpdateTime></station><station><id>119</id><name>South Boston Library - 646 East Broadway</name><terminalName>C32017</terminalName><lastCommWithServer>1381763184644</lastCommWithServer><lat>42.335741</lat><long>-71.03877</long><installed>true</installed><locked>false</locked><installDate>1380027600000</installDate><removalDate/><temporary>false</temporary><public>true</public><nbBikes>5</nbBikes><nbEmptyDocks>10</nbEmptyDocks><latestUpdateTime>1381758605494</latestUpdateTime></station><station><id>120</id><name>Charles St at Beacon St</name><terminalName>D32024</terminalName><lastCommWithServer>1381763065505</lastCommWithServer><lat>42.356052</lat><long>-71.069849</long><installed>true</installed><locked>false</locked><installDate>1380023940000</installDate><removalDate/><temporary>false</temporary><public>true</public><nbBikes>7</nbBikes><nbEmptyDocks>8</nbEmptyDocks><latestUpdateTime>1381759622639</latestUpdateTime></station><station><id>121</id><name>West Broadway at Dorchester St</name><terminalName>C32016</terminalName><lastCommWithServer>1381763048279</lastCommWithServer><lat>42.335693</lat><long>-71.045859</long><installed>true</installed><locked>false</locked><installDate>1380031800000</installDate><removalDate/><temporary>false</temporary><public>true</public><nbBikes>3</nbBikes><nbEmptyDocks>16</nbEmptyDocks><latestUpdateTime>1381763046542</latestUpdateTime></station><station><id>122</id><name>BIDMC - Brookline at Burlington St</name><terminalName>B32020</terminalName><lastCommWithServer>1381763148583</lastCommWithServer><lat>42.345733</lat><long>-71.100694</long><installed>true</installed><locked>false</locked><installDate>1380049800000</installDate><removalDate/><temporary>false</temporary><public>true</public><nbBikes>8</nbBikes><nbEmptyDocks>7</nbEmptyDocks><latestUpdateTime>1381758906525</latestUpdateTime></station><station><id>123</id><name>JP Centre - Centre Street at Myrtle Street</name><terminalName>E32002</terminalName><lastCommWithServer>1381763186284</lastCommWithServer><lat>42.31309</lat><long>-71.114175</long><installed>true</installed><locked>false</locked><installDate>1380119220000</installDate><removalDate/><temporary>false</temporary><public>true</public><nbBikes>5</nbBikes><nbEmptyDocks>10</nbEmptyDocks><latestUpdateTime>1381762460561</latestUpdateTime></station><station><id>124</id><name>JP Monument - South St at Centre St</name><terminalName>E32001</terminalName><lastCommWithServer>1381763237241</lastCommWithServer><lat>42.309467</lat><long>-71.115645</long><installed>true</installed><locked>false</locked><installDate>1380115860000</installDate><removalDate/><temporary>false</temporary><public>true</public><nbBikes>9</nbBikes><nbEmptyDocks>10</nbEmptyDocks><latestUpdateTime>1381761943630</latestUpdateTime></station><station><id>125</id><name>Hyde Square at Barbara St</name><terminalName>E32003</terminalName><lastCommWithServer>1381763204598</lastCommWithServer><lat>42.320998</lat><long>-71.110833</long><installed>true</installed><locked>false</locked><installDate>1380123240000</installDate><removalDate/><temporary>false</temporary><public>true</public><nbBikes>12</nbBikes><nbEmptyDocks>3</nbEmptyDocks><latestUpdateTime>1381727682353</latestUpdateTime></station><station><id>126</id><name>Egleston Square at Columbus Ave</name><terminalName>E32004</terminalName><lastCommWithServer>1381763012818</lastCommWithServer><lat>42.315692</lat><long>-71.098634</long><installed>true</installed><locked>false</locked><installDate>1380129000000</installDate><removalDate/><temporary>false</temporary><public>true</public><nbBikes>2</nbBikes><nbEmptyDocks>13</nbEmptyDocks><latestUpdateTime>1381747300515</latestUpdateTime></station><station><id>127</id><name>Milk St at India St</name><terminalName>D32025</terminalName><lastCommWithServer>1381763220485</lastCommWithServer><lat>42.358508</lat><long>-71.052984</long><installed>true</installed><locked>false</locked><installDate>1380134280000</installDate><removalDate/><temporary>false</temporary><public>true</public><nbBikes>9</nbBikes><nbEmptyDocks>10</nbEmptyDocks><latestUpdateTime>1381759542185</latestUpdateTime></station><station><id>128</id><name>E. Cottage St at Columbia Rd</name><terminalName>C32018</terminalName><lastCommWithServer>1381763222180</lastCommWithServer><lat>42.320561</lat><long>-71.06198</long><installed>true</installed><locked>false</locked><installDate>1380222900000</installDate><removalDate/><temporary>false</temporary><public>true</public><nbBikes>7</nbBikes><nbEmptyDocks>12</nbEmptyDocks><latestUpdateTime>1381677863944</latestUpdateTime></station><station><id>129</id><name>Hayes Square at Vine St.</name><terminalName>D32026</terminalName><lastCommWithServer>1381763001343</lastCommWithServer><lat>42.377022</lat><long>-71.056605</long><installed>true</installed><locked>false</locked><installDate>1380228420000</installDate><removalDate/><temporary>false</temporary><public>true</public><nbBikes>7</nbBikes><nbEmptyDocks>12</nbEmptyDocks><latestUpdateTime>1381756298450</latestUpdateTime></station><station><id>130</id><name>Upham's Corner - Ramsey St at Dudley St</name><terminalName>C32019</terminalName><lastCommWithServer>1381763085434</lastCommWithServer><lat>42.317225</lat><long>-71.065421</long><installed>true</installed><locked>false</locked><installDate>1380814020000</installDate><removalDate/><temporary>false</temporary><public>true</public><nbBikes>6</nbBikes><nbEmptyDocks>8</nbEmptyDocks><latestUpdateTime>1381750302940</latestUpdateTime></station><station><id>131</id><name>Jackson Square T at Centre St</name><terminalName>E32006</terminalName><lastCommWithServer>1381763065237</lastCommWithServer><lat>42.322913</lat><long>-71.100164</long><installed>true</installed><locked>false</locked><installDate>1381335240000</installDate><removalDate/><temporary>false</temporary><public>true</public><nbBikes>13</nbBikes><nbEmptyDocks>10</nbEmptyDocks><latestUpdateTime>1381731523277</latestUpdateTime></station><station><id>132</id><name>Summer St at Cutter St</name><terminalName>S32012</terminalName><lastCommWithServer>1381763109079</lastCommWithServer><lat>42.394002</lat><long>-71.120406</long><installed>true</installed><locked>false</locked><installDate>1381323120000</installDate><removalDate/><temporary>false</temporary><public>true</public><nbBikes>5</nbBikes><nbEmptyDocks>4</nbEmptyDocks><latestUpdateTime>1381759718239</latestUpdateTime></station><station><id>133</id><name>Green St T</name><terminalName>E32005</terminalName><lastCommWithServer>1381763024176</lastCommWithServer><lat>42.310579</lat><long>-71.107341</long><installed>true</installed><locked>false</locked><installDate>1381330680000</installDate><removalDate/><temporary>false</temporary><public>true</public><nbBikes>5</nbBikes><nbEmptyDocks>8</nbEmptyDocks><latestUpdateTime>1381762298691</latestUpdateTime></station></stations>